{"type": "FeatureCollection", "features": [{"type": "Feature", "geometry": {"type": "Point", "coordinates": [139.7494616, 35.6869628]}, "properties": {"name": "Tokyo", "country": "Japan", "population": 35676000, "timezone": "Asia/Tokyo", "elevation": 44}}, {"type": "Feature", "geometry": {"type": "Point", "coordinates": [-73.99571754361698, 40.72156174972766]}, "properties": {"name": "New York", "country": "United States of America", "population": 19040000, "timezone": "America/New_York", "elevation": 10}}, {"type": "Feature", "geometry": {"type": "Point", "coordinates": [-99.1329341, 19.4443883]}, "properties": {"name": "Mexico City", "country": "Mexico", "population": 19028000, "timezone": "America/Mexico_City", "elevation": 2240}}, {"type": "Feature", "geometry": {"type": "Point", "coordinates": [72.8758393972653, 19.06840847529168]}, "properties": {"name": "Mumbai", "country": "India", "population": 18978000, "timezone": "Asia/Kolkata", "elevation": 8}}, {"type": "Feature", "geometry": {"type": "Point", "coordinates": [-46.6269658, -23.5567337]}, "properties": {"name": "São Paulo", "country": "Brazil", "population": 18845000, "timezone": "America/Sao_Paulo", "elevation": 769}}, {"type": "Feature", "geometry": {"type": "Point", "coordinates": [77.2280582, 28.6719388]}, "properties": {"name": "Delhi", "country": "India", "population": 15926000, "timezone": "Asia/Kolkata", "elevation": 227}}, {"type": "Feature", "geometry": {"type": "Point", "coordinates": [121.4345588, 31.2183983]}, "properties": {"name": "Shanghai", "country": "China", "population": 14987000, "timezone": "Asia/Shanghai", "elevation": 12}}, {"type": "Feature", "geometry": {"type": "Point", "coordinates": [88.36912550443886, 22.569578883795778]}, "properties": {"name": "Kolkata", "country": "India", "population": 14787000, "timezone": "Asia/Kolkata", "elevation": 11}}, {"type": "Feature", "geometry": {"type": "Point", "coordinates": [90.4066336, 23.7250056]}, "properties": {"name": "Dhaka", "country": "Bangladesh", "population": 12797394, "timezone": "Asia/Dhaka", "elevation": 23}}, {"type": "Feature", "geometry": {"type": "Point", "coordinates": [-58.43251268766426, -34.61071459139255]}, "properties": {"name": "Buenos Aires", "country": "Argentina", "population": 12795000, "timezone": "America/Argentina/Buenos_Aires", "elevation": 31}}, {"type": "Feature", "geometry": {"type": "Point", "coordinates": [-118.23198647223317, 34.049219260337075]}, "properties": {"name": "Los Angeles", "country": "United States of America", "population": 12500000, "timezone": "America/Los_Angeles", "elevation": 89}}, {"type": "Feature", "geometry": {"type": "Point", "coordinates": [66.9880631, 24.8719381]}, "properties": {"name": "Karachi", "country": "Pakistan", "population": 12130000, "timezone": "Asia/Karachi", "elevation": 8}}, {"type": "Feature", "geometry": {"type": "Point", "coordinates": [31.2480224, 30.0519062]}, "properties": {"name": "Cairo", "country": "Egypt", "population": 11893000, "timezone": "Africa/Cairo", "elevation": 23}}, {"type": "Feature", "geometry": {"type": "Point", "coordinates": [-43.212117466834385, -22.907308056882364]}, "properties": {"name": "Rio de Janeiro", "country": "Brazil", "population": 11748000, "timezone": "America/Sao_Paulo", "elevation": 12}}, {"type": "Feature", "geometry": {"type": "Point", "coordinates": [135.50375419006232, 34.691095244477914]}, "properties": {"name": "Ōsaka", "country": "Japan", "population": 11294000, "timezone": "Asia/Tokyo", "elevation": 4}}, {"type": "Feature", "geometry": {"type": "Point", "coordinates": [116.39420089260611, 39.901720309862675]}, "properties": {"name": "Beijing", "country": "China", "population": 11106000, "timezone": "Asia/Harbin", "elevation": 49}}, {"type": "Feature", "geometry": {"type": "Point", "coordinates": [120.9802713, 14.6061048]}, "properties": {"name": "Manila", "country": "Philippines", "population": 11100000, "timezone": "Asia/Manila", "elevation": 13}}, {"type": "Feature", "geometry": {"type": "Point", "coordinates": [37.613577, 55.75411]}, "properties": {"name": "Moscow", "country": "Russia", "population": 10452000, "timezone": "Europe/Moscow", "elevation": 155}}, {"type": "Feature", "geometry": {"type": "Point", "coordinates": [28.97427681675554, 41.01760173507249]}, "properties": {"name": "Istanbul", "country": "Turkey", "population": 10061000, "timezone": "Europe/Istanbul", "elevation": 39}}, {"type": "Feature", "geometry": {"type": "Point", "coordinates": [2.352992461539213, 48.85809231626911]}, "properties": {"name": "Paris", "country": "France", "population": 9904000, "timezone": "Europe/Paris", "elevation": 42}}, {"type": "Feature", "geometry": {"type": "Point", "coordinates": [126.9977851, 37.568295]}, "properties": {"name": "Seoul", "country": "South Korea", "population": 9796000, "timezone": "Asia/Seoul", "elevation": 38}}, {"type": "Feature", "geometry": {"type": "Point", "coordinates": [3.3895852, 6.4452075]}, "properties": {"name": "Lagos", "country": "Nigeria", "population": 9466000, "timezone": "Europe/Athens", "elevation": 11}}, {"type": "Feature", "geometry": {"type": "Point", "coordinates": [106.8274918, -6.1724718]}, "properties": {"name": "Jakarta", "country": "Indonesia", "population": 9125000, "timezone": "Asia/Jakarta", "elevation": 16}}, {"type": "Feature", "geometry": {"type": "Point", "coordinates": [-87.63523655322338, 41.847961283364114]}, "properties": {"name": "Chicago", "country": "United States of America", "population": 8990000, "timezone": "America/Chicago", "elevation": 179}}, {"type": "Feature", "geometry": {"type": "Point", "coordinates": [113.26178516712943, 23.12472343296695]}, "properties": {"name": "Guangzhou", "country": "China", "population": 8829000, "timezone": "Asia/Chongqing", "elevation": 15}}, {"type": "Feature", "geometry": {"type": "Point", "coordinates": [-0.1186677, 51.5019406]}, "properties": {"name": "London", "country": "United Kingdom", "population": 8567000, "timezone": "Europe/London", "elevation": 25}}, {"type": "Feature", "geometry": {"type": "Point", "coordinates": [-77.052008, -12.0460668]}, "properties": {"name": "Lima", "country": "Peru", "population": 8012000, "timezone": "America/Lima", "elevation": 152}}, {"type": "Feature", "geometry": {"type": "Point", "coordinates": [51.4223982, 35.6738886]}, "properties": {"name": "Tehran", "country": "Iran", "population": 7873000, "timezone": "Asia/Tehran", "elevation": 1178}}, {"type": "Feature", "geometry": {"type": "Point", "coordinates": [15.313026, -4.3277782]}, "properties": {"name": "Kinshasa", "country": "Congo (Kinshasa)", "population": 7843000, "timezone": "Africa/Kinshasa", "elevation": 281}}, {"type": "Feature", "geometry": {"type": "Point", "coordinates": [-74.0852898, 4.5983694]}, "properties": {"name": "Bogota", "country": "Colombia", "population": 7772000, "timezone": "America/Bogota", "elevation": 2582}}, {"type": "Feature", "geometry": {"type": "Point", "coordinates": [114.06115351896277, 22.54809707412332]}, "properties": {"name": "Shenzhen", "country": "China", "population": 7581000, "timezone": "Asia/Chongqing", "elevation": 4}}, {"type": "Feature", "geometry": {"type": "Point", "coordinates": [114.2680712, 30.5819772]}, "properties": {"name": "Wuhan", "country": "China", "population": 7243000, "timezone": "Asia/Shanghai", "elevation": 20}}, {"type": "Feature", "geometry": {"type": "Point", "coordinates": [114.1830635, 22.3069268]}, "properties": {"name": "Hong Kong", "country": "Hong Kong S.A.R.", "population": 7206000, "timezone": "Asia/Hong_Kong", "elevation": 60}}, {"type": "Feature", "geometry": {"type": "Point", "coordinates": [117.19660728208831, 39.08277176197969]}, "properties": {"name": "Tianjin", "country": "China", "population": 7180000, "timezone": "Asia/Shanghai", "elevation": 11}}, {"type": "Feature", "geometry": {"type": "Point", "coordinates": [80.2780529, 13.0919337]}, "properties": {"name": "Chennai", "country": "India", "population": 7163000, "timezone": "Asia/Kolkata", "elevation": 14}}, {"type": "Feature", "geometry": {"type": "Point", "coordinates": [121.5683333, 25.0358333]}, "properties": {"name": "Taipei", "country": "Taiwan", "population": 6900273, "timezone": "Asia/Taipei", "elevation": 5}}, {"type": "Feature", "geometry": {"type": "Point", "coordinates": [77.5580639, 12.971941]}, "properties": {"name": "Bengaluru", "country": "India", "population": 6787000, "timezone": "Asia/Kolkata", "elevation": 920}}, {"type": "Feature", "geometry": {"type": "Point", "coordinates": [100.5146988, 13.7519451]}, "properties": {"name": "Bangkok", "country": "Thailand", "population": 6704000, "timezone": "Asia/Bangkok", "elevation": 12}}, {"type": "Feature", "geometry": {"type": "Point", "coordinates": [74.3480789, 31.5619174]}, "properties": {"name": "Lahore", "country": "Pakistan", "population": 6577000, "timezone": "Asia/Karachi", "elevation": 216}}, {"type": "Feature", "geometry": {"type": "Point", "coordinates": [106.5930358, 29.5669229]}, "properties": {"name": "Chongqing", "country": "China", "population": 6461000, "timezone": "Asia/Chongqing", "elevation": 289}}, {"type": "Feature", "geometry": {"type": "Point", "coordinates": [78.4780077, 17.401929]}, "properties": {"name": "Hyderabad", "country": "India", "population": 6376000, "timezone": "Asia/Kolkata", "elevation": 515}}, {"type": "Feature", "geometry": {"type": "Point", "coordinates": [80.52432001010749, 16.533657954485985]}, "properties": {"name": "Amaravati", "country": "India", "population": 5800000, "timezone": "Asia/Kolkata", "elevation": 0}}, {"type": "Feature", "geometry": {"type": "Point", "coordinates": [-70.65050407285783, -33.44020506918074]}, "properties": {"name": "Santiago", "country": "Chile", "population": 5720000, "timezone": "America/Sao_Paulo", "elevation": 426}}, {"type": "Feature", "geometry": {"type": "Point", "coordinates": [-80.2260519, 25.7895566]}, "properties": {"name": "Miami", "country": "United States of America", "population": 5585000, "timezone": "America/New_York", "elevation": 2}}, {"type": "Feature", "geometry": {"type": "Point", "coordinates": [-43.9169504, -19.9130802]}, "properties": {"name": "Belo Horizonte", "country": "Brazil", "population": 5575000, "timezone": "America/Sao_Paulo", "elevation": 888}}, {"type": "Feature", "geometry": {"type": "Point", "coordinates": [-3.6852975, 40.4019721]}, "properties": {"name": "Madrid", "country": "Spain", "population": 5567000, "timezone": "Europe/Madrid", "elevation": 665}}, {"type": "Feature", "geometry": {"type": "Point", "coordinates": [-75.1798412402816, 39.94594243742075]}, "properties": {"name": "Philadelphia", "country": "United States of America", "population": 5492000, "timezone": "America/New_York", "elevation": 12}}, {"type": "Feature", "geometry": {"type": "Point", "coordinates": [72.5780578, 23.0319988]}, "properties": {"name": "Ahmedabad", "country": "India", "population": 5375000, "timezone": "Asia/Kolkata", "elevation": 56}}, {"type": "Feature", "geometry": {"type": "Point", "coordinates": [106.70298470218748, 10.762124565177512]}, "properties": {"name": "Ho Chi Minh City", "country": "Vietnam", "population": 5314000, "timezone": "Asia/Ho_Chi_Minh", "elevation": 7}}, {"type": "Feature", "geometry": {"type": "Point", "coordinates": [-79.38945855491194, 43.66464454743429]}, "properties": {"name": "Toronto", "country": "Canada", "population": 5213000, "timezone": "America/Toronto", "elevation": 161}}, {"type": "Feature", "geometry": {"type": "Point", "coordinates": [103.8538748, 1.2949793]}, "properties": {"name": "Singapore", "country": "Singapore", "population": 5183700, "timezone": "Asia/Singapore", "elevation": 23}}, {"type": "Feature", "geometry": {"type": "Point", "coordinates": [13.2324812, -8.8363403]}, "properties": {"name": "Luanda", "country": "Angola", "population": 5172900, "timezone": "Africa/Luanda", "elevation": 73}}, {"type": "Feature", "geometry": {"type": "Point", "coordinates": [44.3919229, 33.3405944]}, "properties": {"name": "Baghdad", "country": "Iraq", "population": 5054000, "timezone": "Asia/Baghdad", "elevation": 41}}, {"type": "Feature", "geometry": {"type": "Point", "coordinates": [2.1814245, 41.3852454]}, "properties": {"name": "Barcelona", "country": "Spain", "population": 4920000, "timezone": "Europe/Madrid", "elevation": 15}}, {"type": "Feature", "geometry": {"type": "Point", "coordinates": [88.31851641697797, 22.584697601843814]}, "properties": {"name": "Haora", "country": "India", "population": 4841638, "timezone": "Asia/Kolkata", "elevation": 8}}, {"type": "Feature", "geometry": {"type": "Point", "coordinates": [-96.79468722529398, 32.771958135439206]}, "properties": {"name": "Dallas", "country": "United States of America", "population": 4798000, "timezone": "America/Chicago", "elevation": 128}}, {"type": "Feature", "geometry": {"type": "Point", "coordinates": [123.4480277, 41.8069251]}, "properties": {"name": "Shenyeng", "country": "China", "population": 4787000, "timezone": "Asia/Harbin", "elevation": 53}}, {"type": "Feature", "geometry": {"type": "Point", "coordinates": [32.5322334, 15.5900241]}, "properties": {"name": "Khartoum", "country": "Sudan", "population": 4754000, "timezone": "Africa/Khartoum", "elevation": 381}}, {"type": "Feature", "geometry": {"type": "Point", "coordinates": [73.85189174674915, 18.516394229926586]}, "properties": {"name": "Pune", "country": "India", "population": 4672000, "timezone": "Asia/Kolkata", "elevation": 554}}, {"type": "Feature", "geometry": {"type": "Point", "coordinates": [151.2125477744749, -33.87137339218338]}, "properties": {"name": "Sydney", "country": "Australia", "population": 4630000, "timezone": "Australia/Sydney", "elevation": 58}}, {"type": "Feature", "geometry": {"type": "Point", "coordinates": [30.3140742, 59.9409604]}, "properties": {"name": "St.  Petersburg", "country": "Russia", "population": 4553000, "timezone": "Europe/Moscow", "elevation": 11}}, {"type": "Feature", "geometry": {"type": "Point", "coordinates": [91.7980215, 22.3319381]}, "properties": {"name": "Chattogram", "country": "Bangladesh", "population": 4529000, "timezone": "Asia/Dhaka", "elevation": 15}}, {"type": "Feature", "geometry": {"type": "Point", "coordinates": [113.75047406547746, 23.02153738850798]}, "properties": {"name": "Dongguan", "country": "China", "population": 4528000, "timezone": "Asia/Chongqing", "elevation": 1}}, {"type": "Feature", "geometry": {"type": "Point", "coordinates": [-84.36764186571386, 33.73945728378348]}, "properties": {"name": "Atlanta", "country": "United States of America", "population": 4506000, "timezone": "America/New_York", "elevation": 320}}, {"type": "Feature", "geometry": {"type": "Point", "coordinates": [-71.0719595, 42.331906]}, "properties": {"name": "Boston", "country": "United States of America", "population": 4467000, "timezone": "America/New_York", "elevation": 14}}, {"type": "Feature", "geometry": {"type": "Point", "coordinates": [46.720487024887696, 24.634497474837755]}, "properties": {"name": "Riyadh", "country": "Saudi Arabia", "population": 4465000, "timezone": "Asia/Riyadh", "elevation": 612}}, {"type": "Feature", "geometry": {"type": "Point", "coordinates": [-95.34843625672217, 29.741272831862542]}, "properties": {"name": "Houston", "country": "United States of America", "population": 4459000, "timezone": "America/Chicago", "elevation": 12}}, {"type": "Feature", "geometry": {"type": "Point", "coordinates": [105.8480683, 21.0352731]}, "properties": {"name": "Hanoi", "country": "Vietnam", "population": 4378000, "timezone": "Asia/Ho_Chi_Minh", "elevation": 10}}, {"type": "Feature", "geometry": {"type": "Point", "coordinates": [-77.0113644, 38.9014952]}, "properties": {"name": "Washington,  D.C.", "country": "United States of America", "population": 4338000, "timezone": "America/New_York", "elevation": 7}}, {"type": "Feature", "geometry": {"type": "Point", "coordinates": [-103.3319801, 20.671962]}, "properties": {"name": "Guadalajara", "country": "Mexico", "population": 4198000, "timezone": "America/Mexico_City", "elevation": 1546}}, {"type": "Feature", "geometry": {"type": "Point", "coordinates": [144.9730704, -37.8180855]}, "properties": {"name": "Melbourne", "country": "Australia", "population": 4170000, "timezone": "Australia/Melbourne", "elevation": 25}}, {"type": "Feature", "geometry": {"type": "Point", "coordinates": [29.94805, 31.2019652]}, "properties": {"name": "Alexandria", "country": "Egypt", "population": 4165000, "timezone": "Africa/Cairo", "elevation": 9}}, {"type": "Feature", "geometry": {"type": "Point", "coordinates": [104.0680736, 30.6719459]}, "properties": {"name": "Chengdu", "country": "China", "population": 4123000, "timezone": "Asia/Chongqing", "elevation": 499}}, {"type": "Feature", "geometry": {"type": "Point", "coordinates": [-83.05133408216001, 42.33355800559568]}, "properties": {"name": "Detroit", "country": "United States of America", "population": 4101000, "timezone": "America/Detroit", "elevation": 183}}, {"type": "Feature", "geometry": {"type": "Point", "coordinates": [96.1647318, 16.7853]}, "properties": {"name": "Yangon", "country": "Myanmar", "population": 4088000, "timezone": "Asia/Rangoon", "elevation": 30}}, {"type": "Feature", "geometry": {"type": "Point", "coordinates": [108.8930504, 34.2769713]}, "properties": {"name": "Xian", "country": "China", "population": 4009000, "timezone": "Asia/Chongqing", "elevation": 416}}, {"type": "Feature", "geometry": {"type": "Point", "coordinates": [-51.2019579, -30.0480688]}, "properties": {"name": "Porto Alegre", "country": "Brazil", "population": 3917000, "timezone": "America/Sao_Paulo", "elevation": 46}}, {"type": "Feature", "geometry": {"type": "Point", "coordinates": [121.465, 25.0127778]}, "properties": {"name": "New Taipei", "country": "Taiwan", "population": 3893740, "timezone": null, "elevation": 0}}, {"type": "Feature", "geometry": {"type": "Point", "coordinates": [72.8380936, 21.2019296]}, "properties": {"name": "Surat", "country": "India", "population": 3842000, "timezone": "Asia/Kolkata", "elevation": 20}}, {"type": "Feature", "geometry": {"type": "Point", "coordinates": [108.08299950401414, 24.695252134251945]}, "properties": {"name": "Hechi", "country": "China", "population": 3830000, "timezone": null, "elevation": 0}}, {"type": "Feature", "geometry": {"type": "Point", "coordinates": [-4.020206835187587, 5.323126072244571]}, "properties": {"name": "Abidjan", "country": "Ivory Coast", "population": 3802000, "timezone": "Africa/Abidjan", "elevation": 50}}, {"type": "Feature", "geometry": {"type": "Point", "coordinates": [-47.9179981, -15.7813944]}, "properties": {"name": "Brasília", "country": "Brazil", "population": 3716996, "timezone": "America/Sao_Paulo", "elevation": 1136}}, {"type": "Feature", "geometry": {"type": "Point", "coordinates": [32.8624458, 39.9291844]}, "properties": {"name": "Ankara", "country": "Turkey", "population": 3716000, "timezone": "Europe/Istanbul", "elevation": 850}}, {"type": "Feature", "geometry": {"type": "Point", "coordinates": [-100.3319306, 25.671941]}, "properties": {"name": "Monterrey", "country": "Mexico", "population": 3712000, "timezone": "America/Monterrey", "elevation": 560}}, {"type": "Feature", "geometry": {"type": "Point", "coordinates": [139.602021, 35.4306562]}, "properties": {"name": "Yokohama", "country": "Japan", "population": 3697894, "timezone": "Asia/Tokyo", "elevation": 21}}, {"type": "Feature", "geometry": {"type": "Point", "coordinates": [118.7780285, 32.051965]}, "properties": {"name": "Nanjing", "country": "China", "population": 3679000, "timezone": "Asia/Shanghai", "elevation": 22}}, {"type": "Feature", "geometry": {"type": "Point", "coordinates": [-73.5852428, 45.5019451]}, "properties": {"name": "Montréal", "country": "Canada", "population": 3678000, "timezone": "America/Montreal", "elevation": 216}}, {"type": "Feature", "geometry": {"type": "Point", "coordinates": [106.7180928, 26.5819888]}, "properties": {"name": "Guiyang", "country": "China", "population": 3662000, "timezone": "Asia/Chongqing", "elevation": 1087}}, {"type": "Feature", "geometry": {"type": "Point", "coordinates": [-34.908765500024515, -8.06053182704913]}, "properties": {"name": "Recife", "country": "Brazil", "population": 3651000, "timezone": "America/Recife", "elevation": 8}}, {"type": "Feature", "geometry": {"type": "Point", "coordinates": [126.648039, 45.7519298]}, "properties": {"name": "Harbin", "country": "China", "population": 3621000, "timezone": "Asia/Harbin", "elevation": 140}}, {"type": "Feature", "geometry": {"type": "Point", "coordinates": [-38.5819272, -3.748072]}, "properties": {"name": "Fortaleza", "country": "Brazil", "population": 3602319, "timezone": "America/Fortaleza", "elevation": 18}}, {"type": "Feature", "geometry": {"type": "Point", "coordinates": [87.5730598, 43.8069581]}, "properties": {"name": "Ürümqi", "country": "China", "population": 3575000, "timezone": "Asia/Urumqi", "elevation": 862}}, {"type": "Feature", "geometry": {"type": "Point", "coordinates": [-112.06736527766587, 33.44832240381263]}, "properties": {"name": "Phoenix", "country": "United States of America", "population": 3551000, "timezone": "America/Phoenix", "elevation": 331}}, {"type": "Feature", "geometry": {"type": "Point", "coordinates": [117.6700162, 24.5203754]}, "properties": {"name": "Zhangzhou", "country": "China", "population": 3531147, "timezone": "Asia/Shanghai", "elevation": 14}}, {"type": "Feature", "geometry": {"type": "Point", "coordinates": [-38.4819333, -12.968026]}, "properties": {"name": "Salvador", "country": "Brazil", "population": 3484000, "timezone": "America/Bahia", "elevation": 4}}, {"type": "Feature", "geometry": {"type": "Point", "coordinates": [129.0081017, 35.0969988]}, "properties": {"name": "Busan", "country": "South Korea", "population": 3480000, "timezone": "Asia/Seoul", "elevation": 15}}, {"type": "Feature", "geometry": {"type": "Point", "coordinates": [-122.39959956304557, 37.784262651527904]}, "properties": {"name": "San Francisco", "country": "United States of America", "population": 3450000, "timezone": "America/Los_Angeles", "elevation": 16}}, {"type": "Feature", "geometry": {"type": "Point", "coordinates": [28.0280639, -26.1680989]}, "properties": {"name": "Johannesburg", "country": "South Africa", "population": 3435000, "timezone": "Africa/Johannesburg", "elevation": 1767}}, {"type": "Feature", "geometry": {"type": "Point", "coordinates": [13.3996028, 52.5237645]}, "properties": {"name": "Berlin", "country": "Germany", "population": 3406000, "timezone": "Europe/Berlin", "elevation": 74}}, {"type": "Feature", "geometry": {"type": "Point", "coordinates": [3.0486067, 36.7650107]}, "properties": {"name": "Algiers", "country": "Algeria", "population": 3354000, "timezone": "Africa/Algiers", "elevation": 113}}, {"type": "Feature", "geometry": {"type": "Point", "coordinates": [12.4813126, 41.8979015]}, "properties": {"name": "Rome", "country": "Italy", "population": 3339000, "timezone": "Europe/Rome", "elevation": 20}}, {"type": "Feature", "geometry": {"type": "Point", "coordinates": [125.7527449, 39.0213846]}, "properties": {"name": "Pyongyang", "country": "North Korea", "population": 3300000, "timezone": "Asia/Pyongyang", "elevation": 43}}, {"type": "Feature", "geometry": {"type": "Point", "coordinates": [-75.5769559, 6.2769491]}, "properties": {"name": "Medellín", "country": "Colombia", "population": 3297000, "timezone": "America/Bogota", "elevation": 1405}}, {"type": "Feature", "geometry": {"type": "Point", "coordinates": [69.1813142, 34.5186361]}, "properties": {"name": "Kabul", "country": "Afghanistan", "population": 3277000, "timezone": "Asia/Kabul", "elevation": 1798}}, {"type": "Feature", "geometry": {"type": "Point", "coordinates": [23.7313752, 37.9852721]}, "properties": {"name": "Athens", "country": "Greece", "population": 3242000, "timezone": "Europe/Athens", "elevation": 70}}, {"type": "Feature", "geometry": {"type": "Point", "coordinates": [136.9130456, 35.1569434]}, "properties": {"name": "Nagoya", "country": "Japan", "population": 3230000, "timezone": "Asia/Tokyo", "elevation": 23}}, {"type": "Feature", "geometry": {"type": "Point", "coordinates": [18.4330423, -33.9180651]}, "properties": {"name": "Cape Town", "country": "South Africa", "population": 3215000, "timezone": "Africa/Johannesburg", "elevation": 25}}, {"type": "Feature", "geometry": {"type": "Point", "coordinates": [125.3380415, 43.8669544]}, "properties": {"name": "Changchun", "country": "China", "population": 3183000, "timezone": "Asia/Harbin", "elevation": 206}}, {"type": "Feature", "geometry": {"type": "Point", "coordinates": [-7.6183133, 33.6019221]}, "properties": {"name": "Casablanca", "country": "Morocco", "population": 3181000, "timezone": "Africa/Casablanca", "elevation": 27}}, {"type": "Feature", "geometry": {"type": "Point", "coordinates": [121.627885, 38.9247843]}, "properties": {"name": "Dalian", "country": "China", "population": 3167000, "timezone": "Asia/Shanghai", "elevation": 33}}, {"type": "Feature", "geometry": {"type": "Point", "coordinates": [80.3180504, 26.4619445]}, "properties": {"name": "Kanpur", "country": "India", "population": 3162000, "timezone": "Asia/Kolkata", "elevation": 137}}, {"type": "Feature", "geometry": {"type": "Point", "coordinates": [8.5180919, 12.0019227]}, "properties": {"name": "Kano", "country": "Nigeria", "population": 3140000, "timezone": "Africa/Lagos", "elevation": 484}}, {"type": "Feature", "geometry": {"type": "Point", "coordinates": [34.7680659, 32.0819373]}, "properties": {"name": "Tel Aviv", "country": "Israel", "population": 3112000, "timezone": "Asia/Jerusalem", "elevation": 0}}, {"type": "Feature", "geometry": {"type": "Point", "coordinates": [38.6980586, 9.0352562]}, "properties": {"name": "Addis Ababa", "country": "Ethiopia", "population": 3100000, "timezone": "Africa/Addis_Ababa", "elevation": 2405}}, {"type": "Feature", "geometry": {"type": "Point", "coordinates": [-49.3219435, -25.4180671]}, "properties": {"name": "Curitiba", "country": "Brazil", "population": 3084000, "timezone": "America/Sao_Paulo", "elevation": 924}}, {"type": "Feature", "geometry": {"type": "Point", "coordinates": [-122.31532231603904, 47.600423319460475]}, "properties": {"name": "Seattle", "country": "United States of America", "population": 3074000, "timezone": "America/Los_Angeles", "elevation": 56}}, {"type": "Feature", "geometry": {"type": "Point", "coordinates": [117.9964595757144, 36.82136457648037]}, "properties": {"name": "Zibo", "country": "China", "population": 3061000, "timezone": "Asia/Shanghai", "elevation": 51}}, {"type": "Feature", "geometry": {"type": "Point", "coordinates": [39.2172517, 21.5188353]}, "properties": {"name": "Jeddah", "country": "Saudi Arabia", "population": 3012000, "timezone": "Asia/Riyadh", "elevation": 7}}, {"type": "Feature", "geometry": {"type": "Point", "coordinates": [-117.8299502, 33.6804106]}, "properties": {"name": "Irvine", "country": "United States of America", "population": 3010232, "timezone": "America/Los_Angeles", "elevation": 17}}, {"type": "Feature", "geometry": {"type": "Point", "coordinates": [36.814711, -1.2814009]}, "properties": {"name": "Nairobi", "country": "Kenya", "population": 3010000, "timezone": "Africa/Nairobi", "elevation": 1684}}, {"type": "Feature", "geometry": {"type": "Point", "coordinates": [120.1680728, 30.2519198]}, "properties": {"name": "Hangzhou", "country": "China", "population": 3007000, "timezone": "Asia/Shanghai", "elevation": 12}}, {"type": "Feature", "geometry": {"type": "Point", "coordinates": [28.3279939, -26.147635]}, "properties": {"name": "Benoni", "country": "South Africa", "population": 2986000, "timezone": "Africa/Johannesburg", "elevation": 1641}}, {"type": "Feature", "geometry": {"type": "Point", "coordinates": [-66.9189831, 10.5029444]}, "properties": {"name": "Caracas", "country": "Venezuela", "population": 2985000, "timezone": "America/Caracas", "elevation": 887}}, {"type": "Feature", "geometry": {"type": "Point", "coordinates": [9.2030631, 45.4719211]}, "properties": {"name": "Milan", "country": "Italy", "population": 2945000, "timezone": "Europe/Rome", "elevation": 122}}, {"type": "Feature", "geometry": {"type": "Point", "coordinates": [9.1999963, 48.7799799]}, "properties": {"name": "Stuttgart", "country": "Germany", "population": 2944700, "timezone": "Europe/Berlin", "elevation": 252}}, {"type": "Feature", "geometry": {"type": "Point", "coordinates": [102.69743977228744, 25.042859073104868]}, "properties": {"name": "Kunming", "country": "China", "population": 2931000, "timezone": "Asia/Chongqing", "elevation": 1895}}, {"type": "Feature", "geometry": {"type": "Point", "coordinates": [39.266396, -6.7980667]}, "properties": {"name": "Dar es Salaam", "country": "Tanzania", "population": 2930000, "timezone": "Africa/Dar_es_Salaam", "elevation": 24}}, {"type": "Feature", "geometry": {"type": "Point", "coordinates": [75.8080415, 26.9230791]}, "properties": {"name": "Jaipur", "country": "India", "population": 2917000, "timezone": "Asia/Kolkata", "elevation": 435}}, {"type": "Feature", "geometry": {"type": "Point", "coordinates": [-117.15088145402623, 32.71891385421138]}, "properties": {"name": "San Diego", "country": "United States of America", "population": 2916000, "timezone": "America/Los_Angeles", "elevation": 20}}, {"type": "Feature", "geometry": {"type": "Point", "coordinates": [112.5431119, 37.8769583]}, "properties": {"name": "Taiyuan", "country": "China", "population": 2913000, "timezone": "Asia/Chongqing", "elevation": 795}}, {"type": "Feature", "geometry": {"type": "Point", "coordinates": [8.6750154, 50.0999768]}, "properties": {"name": "Frankfurt", "country": "Germany", "population": 2895000, "timezone": "Europe/Berlin", "elevation": 113}}, {"type": "Feature", "geometry": {"type": "Point", "coordinates": [120.3280631, 36.0919251]}, "properties": {"name": "Qingdao", "country": "China", "population": 2866000, "timezone": "Asia/Shanghai", "elevation": 16}}, {"type": "Feature", "geometry": {"type": "Point", "coordinates": [112.7488874, -7.24729]}, "properties": {"name": "Surabaya", "country": "Indonesia", "population": 2845000, "timezone": "Asia/Jakarta", "elevation": 8}}, {"type": "Feature", "geometry": {"type": "Point", "coordinates": [-9.1468122, 38.7246687]}, "properties": {"name": "Lisbon", "country": "Portugal", "population": 2812000, "timezone": "Europe/Lisbon", "elevation": 68}}, {"type": "Feature", "geometry": {"type": "Point", "coordinates": [116.9930728, 36.6769282]}, "properties": {"name": "Jinan", "country": "China", "population": 2798000, "timezone": "Asia/Shanghai", "elevation": 32}}, {"type": "Feature", "geometry": {"type": "Point", "coordinates": [130.4080679, 33.5969611]}, "properties": {"name": "Fukuoka", "country": "Japan", "population": 2792000, "timezone": "Asia/Tokyo", "elevation": 3}}, {"type": "Feature", "geometry": {"type": "Point", "coordinates": [-47.05588541861934, -22.90789786605005]}, "properties": {"name": "Campinas", "country": "Brazil", "population": 2791000, "timezone": "America/Sao_Paulo", "elevation": 686}}, {"type": "Feature", "geometry": {"type": "Point", "coordinates": [120.2666019, 22.6333071]}, "properties": {"name": "Kaohsiung", "country": "Taiwan", "population": 2769072, "timezone": "Asia/Taipei", "elevation": 9}}, {"type": "Feature", "geometry": {"type": "Point", "coordinates": [121.0299662, 14.6504352]}, "properties": {"name": "Quezon City", "country": "Philippines", "population": 2761720, "timezone": null, "elevation": 0}}, {"type": "Feature", "geometry": {"type": "Point", "coordinates": [19.020017, 50.2603805]}, "properties": {"name": "Katowice", "country": "Poland", "population": 2746000, "timezone": "Europe/Warsaw", "elevation": 276}}, {"type": "Feature", "geometry": {"type": "Point", "coordinates": [37.1680744, 36.2319166]}, "properties": {"name": "Aleppo", "country": "Syria", "population": 2738000, "timezone": "Asia/Damascus", "elevation": 401}}, {"type": "Feature", "geometry": {"type": "Point", "coordinates": [31.01094366326237, -29.86066234118211]}, "properties": {"name": "Durban", "country": "South Africa", "population": 2729000, "timezone": "Africa/Johannesburg", "elevation": 21}}, {"type": "Feature", "geometry": {"type": "Point", "coordinates": [30.5146821, 50.4353132]}, "properties": {"name": "Kyiv", "country": "Ukraine", "population": 2709000, "timezone": "Europe/Kiev", "elevation": 179}}, {"type": "Feature", "geometry": {"type": "Point", "coordinates": [80.9130529, 26.8569849]}, "properties": {"name": "Lucknow", "country": "India", "population": 2695000, "timezone": "Asia/Kolkata", "elevation": 126}}, {"type": "Feature", "geometry": {"type": "Point", "coordinates": [31.1900236, 30.0099886]}, "properties": {"name": "Giza", "country": "Egypt", "population": 2681863, "timezone": "Africa/Cairo", "elevation": 19}}, {"type": "Feature", "geometry": {"type": "Point", "coordinates": [113.6631469, 34.756942]}, "properties": {"name": "Zhengzhou", "country": "China", "population": 2636000, "timezone": "Asia/Shanghai", "elevation": 104}}, {"type": "Feature", "geometry": {"type": "Point", "coordinates": [120.681667, 24.1520775]}, "properties": {"name": "Taichung", "country": "Taiwan", "population": 2629323, "timezone": "Asia/Taipei", "elevation": 91}}, {"type": "Feature", "geometry": {"type": "Point", "coordinates": [3.9280362, 7.3819721]}, "properties": {"name": "Ibadan", "country": "Nigeria", "population": 2628000, "timezone": "Africa/Lagos", "elevation": 181}}, {"type": "Feature", "geometry": {"type": "Point", "coordinates": [73.1080513, 31.4119266]}, "properties": {"name": "Faisalabad", "country": "Pakistan", "population": 2617000, "timezone": "Asia/Karachi", "elevation": 186}}, {"type": "Feature", "geometry": {"type": "Point", "coordinates": [-93.2537322, 44.9819251]}, "properties": {"name": "Minneapolis", "country": "United States of America", "population": 2616000, "timezone": "America/Chicago", "elevation": 253}}, {"type": "Feature", "geometry": {"type": "Point", "coordinates": [119.2981001, 26.0819418]}, "properties": {"name": "Fuzhou", "country": "China", "population": 2606000, "timezone": "Asia/Shanghai", "elevation": 14}}, {"type": "Feature", "geometry": {"type": "Point", "coordinates": [112.9680472, 28.2019158]}, "properties": {"name": "Changsha", "country": "China", "population": 2604000, "timezone": "Asia/Chongqing", "elevation": 67}}, {"type": "Feature", "geometry": {"type": "Point", "coordinates": [-17.475076, 14.7177776]}, "properties": {"name": "Dakar", "country": "Senegal", "population": 2604000, "timezone": "Africa/Dakar", "elevation": 12}}, {"type": "Feature", "geometry": {"type": "Point", "coordinates": [27.1498482, 38.4380955]}, "properties": {"name": "İzmir", "country": "Turkey", "population": 2587000, "timezone": "Europe/Istanbul", "elevation": 122}}, {"type": "Feature", "geometry": {"type": "Point", "coordinates": [112.9000232, 27.8504305]}, "properties": {"name": "Xiangtan", "country": "China", "population": 2586948, "timezone": "Asia/Chongqing", "elevation": 31}}, {"type": "Feature", "geometry": {"type": "Point", "coordinates": [103.7900544, 36.0579737]}, "properties": {"name": "Lanzhou", "country": "China", "population": 2561000, "timezone": "Asia/Chongqing", "elevation": 1521}}, {"type": "Feature", "geometry": {"type": "Point", "coordinates": [126.6402876, 37.4780937]}, "properties": {"name": "Incheon", "country": "South Korea", "population": 2550000, "timezone": "Asia/Seoul", "elevation": 43}}, {"type": "Feature", "geometry": {"type": "Point", "coordinates": [141.3380985, 43.0769251]}, "properties": {"name": "Sapporo", "country": "Japan", "population": 2544000, "timezone": "Asia/Tokyo", "elevation": 26}}, {"type": "Feature", "geometry": {"type": "Point", "coordinates": [118.0780712, 24.4519379]}, "properties": {"name": "Xiamen", "country": "China", "population": 2519000, "timezone": "Asia/Shanghai", "elevation": 12}}, {"type": "Feature", "geometry": {"type": "Point", "coordinates": [-79.9219878, -2.2180879]}, "properties": {"name": "Guayaquil", "country": "Ecuador", "population": 2514000, "timezone": "America/Guayaquil", "elevation": 14}}, {"type": "Feature", "geometry": {"type": "Point", "coordinates": [100.3293679, 5.4136132]}, "properties": {"name": "George Town", "country": "Malaysia", "population": 2500000, "timezone": "Asia/Kuala_Lumpur", "elevation": 14}}, {"type": "Feature", "geometry": {"type": "Point", "coordinates": [-66.1299793, 18.440023]}, "properties": {"name": "San Juan", "country": "Puerto Rico", "population": 2478905, "timezone": "America/Puerto_Rico", "elevation": 7}}, {"type": "Feature", "geometry": {"type": "Point", "coordinates": [59.5680508, 36.2719658]}, "properties": {"name": "Mashhad", "country": "Iran", "population": 2469000, "timezone": "Asia/Tehran", "elevation": 980}}, {"type": "Feature", "geometry": {"type": "Point", "coordinates": [36.29805, 33.5019799]}, "properties": {"name": "Damascus", "country": "Syria", "population": 2466000, "timezone": "Asia/Damascus", "elevation": 701}}, {"type": "Feature", "geometry": {"type": "Point", "coordinates": [128.6050255, 35.8687346]}, "properties": {"name": "Daegu", "country": "South Korea", "population": 2460000, "timezone": "Asia/Seoul", "elevation": 45}}, {"type": "Feature", "geometry": {"type": "Point", "coordinates": [79.088048, 21.1719056]}, "properties": {"name": "Nagpur", "country": "India", "population": 2454000, "timezone": "Asia/Kolkata", "elevation": 319}}, {"type": "Feature", "geometry": {"type": "Point", "coordinates": [120.8280325, 40.7522867]}, "properties": {"name": "Jinxi", "country": "China", "population": 2426000, "timezone": "Asia/Harbin", "elevation": 17}}, {"type": "Feature", "geometry": {"type": "Point", "coordinates": [114.4780325, 38.0519605]}, "properties": {"name": "Shijiazhuang", "country": "China", "population": 2417000, "timezone": "Asia/Shanghai", "elevation": 77}}, {"type": "Feature", "geometry": {"type": "Point", "coordinates": [10.1796781, 36.8027781]}, "properties": {"name": "Tunis", "country": "Tunisia", "population": 2412500, "timezone": "Africa/Tunis", "elevation": 23}}, {"type": "Feature", "geometry": {"type": "Point", "coordinates": [16.3646931, 48.2019611]}, "properties": {"name": "Vienna", "country": "Austria", "population": 2400000, "timezone": "Europe/Vienna", "elevation": 171}}, {"type": "Feature", "geometry": {"type": "Point", "coordinates": [126.5480968, 43.8519166]}, "properties": {"name": "Jilin", "country": "China", "population": 2396000, "timezone": "Asia/Harbin", "elevation": 188}}, {"type": "Feature", "geometry": {"type": "Point", "coordinates": [32.4800223, 15.6166811]}, "properties": {"name": "Omdurman", "country": "Sudan", "population": 2395159, "timezone": "Africa/Khartoum", "elevation": 391}}, {"type": "Feature", "geometry": {"type": "Point", "coordinates": [107.5680667, -6.9480834]}, "properties": {"name": "Bandung", "country": "Indonesia", "population": 2394000, "timezone": "Asia/Jakarta", "elevation": 714}}, {"type": "Feature", "geometry": {"type": "Point", "coordinates": [106.972323, -6.2172575]}, "properties": {"name": "Bekasi", "country": "Indonesia", "population": 2378211, "timezone": "Asia/Jakarta", "elevation": 18}}, {"type": "Feature", "geometry": {"type": "Point", "coordinates": [8.470015, 49.5003752]}, "properties": {"name": "Mannheim", "country": "Germany", "population": 2362000, "timezone": "Europe/Berlin", "elevation": 100}}, {"type": "Feature", "geometry": {"type": "Point", "coordinates": [120.6481469, 28.0219268]}, "properties": {"name": "Wenzhou", "country": "China", "population": 2350000, "timezone": "Asia/Shanghai", "elevation": 10}}, {"type": "Feature", "geometry": {"type": "Point", "coordinates": [115.8780504, 28.6819381]}, "properties": {"name": "Nanchang", "country": "China", "population": 2350000, "timezone": "Asia/Shanghai", "elevation": 20}}, {"type": "Feature", "geometry": {"type": "Point", "coordinates": [-82.4605667, 27.9489338]}, "properties": {"name": "Tampa", "country": "United States of America", "population": 2314000, "timezone": "America/New_York", "elevation": 1}}, {"type": "Feature", "geometry": {"type": "Point", "coordinates": [-123.1235901, 49.2753624]}, "properties": {"name": "Vancouver", "country": "Canada", "population": 2313328, "timezone": "America/Vancouver", "elevation": 70}}, {"type": "Feature", "geometry": {"type": "Point", "coordinates": [-104.9859618, 39.7411339]}, "properties": {"name": "Denver", "country": "United States of America", "population": 2313000, "timezone": "America/Denver", "elevation": 1609}}, {"type": "Feature", "geometry": {"type": "Point", "coordinates": [-1.9219426, 52.4769198]}, "properties": {"name": "Birmingham", "country": "United Kingdom", "population": 2285000, "timezone": "Europe/London", "elevation": 149}}, {"type": "Feature", "geometry": {"type": "Point", "coordinates": [-76.6145820807727, 39.28151578641361]}, "properties": {"name": "Baltimore", "country": "United States of America", "population": 2255000, "timezone": "America/New_York", "elevation": 10}}, {"type": "Feature", "geometry": {"type": "Point", "coordinates": [-76.5019123, 3.401905]}, "properties": {"name": "Cali", "country": "Colombia", "population": 2254000, "timezone": "America/Bogota", "elevation": 758}}, {"type": "Feature", "geometry": {"type": "Point", "coordinates": [140.86966685536837, 38.2684409197744]}, "properties": {"name": "Sendai", "country": "Japan", "population": 2250000, "timezone": "Asia/Tokyo", "elevation": 53}}, {"type": "Feature", "geometry": {"type": "Point", "coordinates": [14.2430655, 40.8419711]}, "properties": {"name": "Naples", "country": "Italy", "population": 2250000, "timezone": "Europe/Rome", "elevation": 17}}, {"type": "Feature", "geometry": {"type": "Point", "coordinates": [-2.248684667159885, 53.47531992472453]}, "properties": {"name": "Manchester", "country": "United Kingdom", "population": 2230000, "timezone": "Europe/London", "elevation": 51}}, {"type": "Feature", "geometry": {"type": "Point", "coordinates": [-90.2419264, 38.6369636]}, "properties": {"name": "St. Louis", "country": "United States of America", "population": 2199000, "timezone": "America/Chicago", "elevation": 142}}, {"type": "Feature", "geometry": {"type": "Point", "coordinates": [-98.20373725542488, 19.032593839016364]}, "properties": {"name": "Puebla", "country": "Mexico", "population": 2195000, "timezone": "America/Mexico_City", "elevation": 2166}}, {"type": "Feature", "geometry": {"type": "Point", "coordinates": [13.1800118, 32.8925]}, "properties": {"name": "Tripoli", "country": "Libya", "population": 2189000, "timezone": null, "elevation": 0}}, {"type": "Feature", "geometry": {"type": "Point", "coordinates": [69.26882294266261, 41.30382822156198]}, "properties": {"name": "Tashkent", "country": "Uzbekistan", "population": 2184000, "timezone": "Asia/Tashkent", "elevation": 424}}, {"type": "Feature", "geometry": {"type": "Point", "coordinates": [106.1280513, 30.7823784]}, "properties": {"name": "Nanchong", "country": "China", "population": 2174000, "timezone": "Asia/Chongqing", "elevation": 287}}, {"type": "Feature", "geometry": {"type": "Point", "coordinates": [-82.366128, 23.1339047]}, "properties": {"name": "Havana", "country": "Cuba", "population": 2174000, "timezone": "America/Havana", "elevation": 41}}, {"type": "Feature", "geometry": {"type": "Point", "coordinates": [108.3180985, 22.8219341]}, "properties": {"name": "Nanning", "country": "China", "population": 2167000, "timezone": "Asia/Chongqing", "elevation": 91}}, {"type": "Feature", "geometry": {"type": "Point", "coordinates": [-48.4819689, -1.4480574]}, "properties": {"name": "Belém", "country": "Brazil", "population": 2167000, "timezone": "America/Belem", "elevation": 15}}, {"type": "Feature", "geometry": {"type": "Point", "coordinates": [85.1280928, 25.626905]}, "properties": {"name": "Patna", "country": "India", "population": 2158000, "timezone": "Asia/Kolkata", "elevation": 53}}, {"type": "Feature", "geometry": {"type": "Point", "coordinates": [-69.92974231579055, 18.470745058048376]}, "properties": {"name": "Santo Domingo", "country": "Dominican Republic", "population": 2154000, "timezone": "America/Bogota", "elevation": 0}}, {"type": "Feature", "geometry": {"type": "Point", "coordinates": [117.5680765, 34.8819473]}, "properties": {"name": "Zaozhuang", "country": "China", "population": 2145000, "timezone": "Asia/Shanghai", "elevation": 79}}, {"type": "Feature", "geometry": {"type": "Point", "coordinates": [49.8602713, 40.3972179]}, "properties": {"name": "Baku", "country": "Azerbaijan", "population": 2122300, "timezone": "Asia/Baku", "elevation": -23}}, {"type": "Feature", "geometry": {"type": "Point", "coordinates": [-0.2186616, 5.5519805]}, "properties": {"name": "Accra", "country": "Ghana", "population": 2121000, "timezone": "Africa/Accra", "elevation": 33}}, {"type": "Feature", "geometry": {"type": "Point", "coordinates": [121.3980753, 37.532354]}, "properties": {"name": "Yantai", "country": "China", "population": 2116000, "timezone": "Asia/Shanghai", "elevation": 22}}]}